[
  { "id": 1, "name": "New York", "lat": 40.7128, "lon": -74.0060 },
  { "id": 2, "name": "Los Angeles", "lat": 34.0522, "lon": -118.2437 },
  { "id": 3, "name": "Chicago", "lat": 41.8781, "lon": -87.6298 },
  { "id": 4, "name": "Houston", "lat": 29.7604, "lon": -95.3698 },
  { "id": 5, "name": "Phoenix", "lat": 33.4484, "lon": -112.0740 },
  { "id": 6, "name": "Philadelphia", "lat": 39.9526, "lon": -75.1652 },
  { "id": 7, "name": "San Antonio", "lat": 29.4241, "lon": -98.4936 },
  { "id": 8, "name": "San Diego", "lat": 32.7157, "lon": -117.1611 },
  { "id": 9, "name": "Dallas", "lat": 32.7767, "lon": -96.7970 },
  { "id": 10, "name": "San Jose", "lat": 37.3382, "lon": -121.8863 },
  { "id": 11, "name": "Austin", "lat": 30.2672, "lon": -97.7431 },
  { "id": 12, "name": "Jacksonville", "lat": 30.3322, "lon": -81.6557 },
  { "id": 13, "name": "Fort Worth", "lat": 32.7555, "lon": -97.3308 },
  { "id": 14, "name": "Columbus", "lat": 39.9612, "lon": -82.9988 },
  { "id": 15, "name": "Charlotte", "lat": 35.2271, "lon": -80.8431 },
  { "id": 16, "name": "San Francisco", "lat": 37.7749, "lon": -122.4194 },
  { "id": 17, "name": "Indianapolis", "lat": 39.7684, "lon": -86.1581 },
  { "id": 18, "name": "Seattle", "lat": 47.6062, "lon": -122.3321 },
  { "id": 19, "name": "Denver", "lat": 39.7392, "lon": -104.9903 },
  { "id": 20, "name": "Washington", "lat": 38.9072, "lon": -77.0369 },
  { "id": 21, "name": "Boston", "lat": 42.3601, "lon": -71.0589 },
  { "id": 22, "name": "El Paso", "lat": 31.7619, "lon": -106.4850 },
  { "id": 23, "name": "Nashville", "lat": 36.1627, "lon": -86.7816 },
  { "id": 24, "name": "Detroit", "lat": 42.3314, "lon": -83.0458 },
  { "id": 25, "name": "Oklahoma City", "lat": 35.4676, "lon": -97.5164 },
  { "id": 26, "name": "Portland", "lat": 45.5051, "lon": -122.6750 },
  { "id": 27, "name": "Las Vegas", "lat": 36.1699, "lon": -115.1398 },
  { "id": 28, "name": "Memphis", "lat": 35.1495, "lon": -90.0490 },
  { "id": 29, "name": "Louisville", "lat": 38.2527, "lon": -85.7585 },
  { "id": 30, "name": "Baltimore", "lat": 39.2904, "lon": -76.6122 },
  { "id": 31, "name": "London", "lat": 51.5072, "lon": -0.1276 },
  { "id": 32, "name": "Paris", "lat": 48.8566, "lon": 2.3522 },
  { "id": 33, "name": "Berlin", "lat": 52.5200, "lon": 13.4050 },
  { "id": 34, "name": "Madrid", "lat": 40.4168, "lon": -3.7038 },
  { "id": 35, "name": "Rome", "lat": 41.9028, "lon": 12.4964 },
  { "id": 36, "name": "Vienna", "lat": 48.2082, "lon": 16.3738 },
  { "id": 37, "name": "Dublin", "lat": 53.3498, "lon": -6.2603 },
  { "id": 38, "name": "Amsterdam", "lat": 52.3676, "lon": 4.9041 },
  { "id": 39, "name": "Brussels", "lat": 50.8503, "lon": 4.3517 },
  { "id": 40, "name": "Lisbon", "lat": 38.7169, "lon": -9.1399 },
  { "id": 41, "name": "Prague", "lat": 50.0755, "lon": 14.4378 },
  { "id": 42, "name": "Warsaw", "lat": 52.2297, "lon": 21.0122 },
  { "id": 43, "name": "Budapest", "lat": 47.4979, "lon": 19.0402 },
  { "id": 44, "name": "Copenhagen", "lat": 55.6761, "lon": 12.5683 },
  { "id": 45, "name": "Stockholm", "lat": 59.3293, "lon": 18.0686 },
  { "id": 46, "name": "Oslo", "lat": 59.9139, "lon": 10.7522 },
  { "id": 47, "name": "Helsinki", "lat": 60.1695, "lon": 24.9354 },
  { "id": 48, "name": "Athens", "lat": 37.9838, "lon": 23.7275 },
  { "id": 49, "name": "Zurich", "lat": 47.3769, "lon": 8.5417 },
  { "id": 50, "name": "Geneva", "lat": 46.2044, "lon": 6.1432 },
  { "id": 51, "name": "Istanbul", "lat": 41.0082, "lon": 28.9784 },
  { "id": 52, "name": "Moscow", "lat": 55.7558, "lon": 37.6173 },
  { "id": 53, "name": "Saint Petersburg", "lat": 59.9343, "lon": 30.3351 },
  { "id": 54, "name": "Kyiv", "lat": 50.4501, "lon": 30.5234 },
  { "id": 55, "name": "Bucharest", "lat": 44.4268, "lon": 26.1025 },
  { "id": 56, "name": "Belgrade", "lat": 44.7866, "lon": 20.4489 },
  { "id": 57, "name": "Zagreb", "lat": 45.8150, "lon": 15.9819 },
  { "id": 58, "name": "Ljubljana", "lat": 46.0569, "lon": 14.5058 },
  { "id": 59, "name": "Sarajevo", "lat": 43.8563, "lon": 18.4131 },
  { "id": 60, "name": "Skopje", "lat": 41.9981, "lon": 21.4254 },
  { "id": 61, "name": "Tokyo", "lat": 35.6895, "lon": 139.6917 },
  { "id": 62, "name": "Osaka", "lat": 34.6937, "lon": 135.5023 },
  { "id": 63, "name": "Kyoto", "lat": 35.0116, "lon": 135.7681 },
  { "id": 64, "name": "Yokohama", "lat": 35.4437, "lon": 139.6380 },
  { "id": 65, "name": "Nagoya", "lat": 35.1815, "lon": 136.9066 },
  { "id": 66, "name": "Sapporo", "lat": 43.0621, "lon": 141.3544 },
  { "id": 67, "name": "Seoul", "lat": 37.5665, "lon": 126.9780 },
  { "id": 68, "name": "Busan", "lat": 35.1796, "lon": 129.0756 },
  { "id": 69, "name": "Daegu", "lat": 35.8714, "lon": 128.6014 },
  { "id": 70, "name": "Incheon", "lat": 37.4563, "lon": 126.7052 },
  { "id": 71, "name": "Beijing", "lat": 39.9042, "lon": 116.4074 },
  { "id": 72, "name": "Shanghai", "lat": 31.2304, "lon": 121.4737 },
  { "id": 73, "name": "Guangzhou", "lat": 23.1291, "lon": 113.2644 },
  { "id": 74, "name": "Shenzhen", "lat": 22.5431, "lon": 114.0579 },
  { "id": 75, "name": "Chengdu", "lat": 30.5728, "lon": 104.0668 },
  { "id": 76, "name": "Wuhan", "lat": 30.5928, "lon": 114.3055 },
  { "id": 77, "name": "Hong Kong", "lat": 22.3193, "lon": 114.1694 },
  { "id": 78, "name": "Singapore", "lat": 1.3521, "lon": 103.8198 },
  { "id": 79, "name": "Bangkok", "lat": 13.7563, "lon": 100.5018 },
  { "id": 80, "name": "Kuala Lumpur", "lat": 3.1390, "lon": 101.6869 },
  { "id": 81, "name": "Jakarta", "lat": -6.2088, "lon": 106.8456 },
  { "id": 82, "name": "Manila", "lat": 14.5995, "lon": 120.9842 },
  { "id": 83, "name": "Hanoi", "lat": 21.0285, "lon": 105.8544 },
  { "id": 84, "name": "Ho Chi Minh City", "lat": 10.8231, "lon": 106.6297 },
  { "id": 85, "name": "New Delhi", "lat": 28.6139, "lon": 77.2090 },
  { "id": 86, "name": "Mumbai", "lat": 19.0760, "lon": 72.8777 },
  { "id": 87, "name": "Bangalore", "lat": 12.9716, "lon": 77.5946 },
  { "id": 88, "name": "Hyderabad", "lat": 17.3850, "lon": 78.4867 },
  { "id": 89, "name": "Chennai", "lat": 13.0827, "lon": 80.2707 },
  { "id": 90, "name": "Kolkata", "lat": 22.5726, "lon": 88.3639 },
  { "id": 91, "name": "Ahmedabad", "lat": 23.0225, "lon": 72.5714 },
  { "id": 92, "name": "Pune", "lat": 18.5204, "lon": 73.8567 },
  { "id": 93, "name": "Surat", "lat": 21.1702, "lon": 72.8311 },
  { "id": 94, "name": "Jaipur", "lat": 26.9124, "lon": 75.7873 },
  { "id": 95, "name": "Lucknow", "lat": 26.8467, "lon": 80.9462 },
  { "id": 96, "name": "Kanpur", "lat": 26.4499, "lon": 80.3319 },
  { "id": 97, "name": "Nagpur", "lat": 21.1458, "lon": 79.0882 },
  { "id": 98, "name": "Visakhapatnam", "lat": 17.6868, "lon": 83.2185 },
  { "id": 99, "name": "Bhopal", "lat": 23.2599, "lon": 77.4126 },
  { "id": 100, "name": "Patna", "lat": 25.5941, "lon": 85.1376 },
  { "id": 101, "name": "Indore", "lat": 22.7196, "lon": 75.8577 },
  { "id": 102, "name": "Thane", "lat": 19.2183, "lon": 72.9781 },
  { "id": 103, "name": "Agra", "lat": 27.1767, "lon": 78.0081 },
  { "id": 104, "name": "Varanasi", "lat": 25.3176, "lon": 82.9739 },
  { "id": 105, "name": "Meerut", "lat": 28.9845, "lon": 77.7064 },
  { "id": 106, "name": "Faridabad", "lat": 28.4089, "lon": 77.3178 },
  { "id": 107, "name": "Rajkot", "lat": 22.3039, "lon": 70.8022 },
  { "id": 108, "name": "Kalyan-Dombivli", "lat": 19.2403, "lon": 73.1305 },
  { "id": 109, "name": "Vasai-Virar", "lat": 19.3919, "lon": 72.8397 },
  { "id": 110, "name": "Varanasi", "lat": 25.3176, "lon": 82.9739 },
  { "id": 111, "name": "Srinagar", "lat": 34.0837, "lon": 74.7973 },
  { "id": 112, "name": "Amritsar", "lat": 31.6340, "lon": 74.8723 },
  { "id": 113, "name": "Ludhiana", "lat": 30.9005, "lon": 75.8573 },
  { "id": 114, "name": "Chandigarh", "lat": 30.7333, "lon": 76.7794 },
  { "id": 115, "name": "Guwahati", "lat": 26.1445, "lon": 91.7362 },
  { "id": 116, "name": "Jodhpur", "lat": 26.2389, "lon": 73.0243 },
  { "id": 117, "name": "Raipur", "lat": 21.2514, "lon": 81.6296 },
  { "id": 118, "name": "Ranchi", "lat": 23.3441, "lon": 85.3096 },
  { "id": 119, "name": "Coimbatore", "lat": 11.0168, "lon": 76.9558 },
  { "id": 120, "name": "Madurai", "lat": 9.9252, "lon": 78.1198 },
  { "id": 121, "name": "Nashik", "lat": 19.9975, "lon": 73.7898 },
  { "id": 122, "name": "Vijayawada", "lat": 16.5062, "lon": 80.6480 },
  { "id": 123, "name": "Hubli-Dharwad", "lat": 15.3647, "lon": 75.1240 },
  { "id": 124, "name": "Mysore", "lat": 12.2958, "lon": 76.6394 },
  { "id": 125, "name": "Jalandhar", "lat": 31.3260, "lon": 75.5762 },
  { "id": 126, "name": "Tiruchirappalli", "lat": 10.7905, "lon": 78.7047 },
  { "id": 127, "name": "Salem", "lat": 11.6643, "lon": 78.1460 },
  { "id": 128, "name": "Gwalior", "lat": 26.2183, "lon": 78.1828 },
  { "id": 129, "name": "Bareilly", "lat": 28.3670, "lon": 79.4304 },
  { "id": 130, "name": "Aligarh", "lat": 27.8974, "lon": 78.0880 },
  { "id": 131, "name": "Moradabad", "lat": 28.8386, "lon": 78.7733 },
  { "id": 132, "name": "Jamshedpur", "lat": 22.8046, "lon": 86.2029 },
  { "id": 133, "name": "Bhilai", "lat": 21.1938, "lon": 81.3509 },
  { "id": 134, "name": "Cuttack", "lat": 20.4625, "lon": 85.8828 },
  { "id": 135, "name": "Kochi", "lat": 9.9312, "lon": 76.2673 },
  { "id": 136, "name": "Thiruvananthapuram", "lat": 8.5241, "lon": 76.9366 },
  { "id": 137, "name": "Dehradun", "lat": 30.3165, "lon": 78.0322 },
  { "id": 138, "name": "Shillong", "lat": 25.5788, "lon": 91.8933 },
  { "id": 139, "name": "Aizawl", "lat": 23.7271, "lon": 92.7176 },
  { "id": 140, "name": "Imphal", "lat": 24.8170, "lon": 93.9368 },
  { "id": 141, "name": "Itanagar", "lat": 27.0844, "lon": 93.6053 },
  { "id": 142, "name": "Gangtok", "lat": 27.3314, "lon": 88.6138 },
  { "id": 143, "name": "Kohima", "lat": 25.6701, "lon": 94.1077 },
  { "id": 144, "name": "Panaji", "lat": 15.4909, "lon": 73.8278 },
  { "id": 145, "name": "Puducherry", "lat": 11.9139, "lon": 79.8145 },
  { "id": 146, "name": "Port Blair", "lat": 11.6234, "lon": 92.7265 },
  { "id": 147, "name": "Daman", "lat": 20.4143, "lon": 72.8328 },
  { "id": 148, "name": "Diu", "lat": 20.7141, "lon": 70.9822 },
  { "id": 149, "name": "Silvassa", "lat": 20.2763, "lon": 73.0083 },
  { "id": 150, "name": "Agar", "lat": 23.7118, "lon": 76.0150 },
  { "id": 151, "name": "Dhar", "lat": 22.6013, "lon": 75.3025 },
  { "id": 152, "name": "Sehore", "lat": 23.2001, "lon": 77.0830 },
  { "id": 153, "name": "Rewa", "lat": 24.5300, "lon": 81.2922 },
  { "id": 154, "name": "Katni", "lat": 23.8340, "lon": 80.3894 },
  { "id": 155, "name": "Satna", "lat": 24.6005, "lon": 80.8322 },
  { "id": 156, "name": "Silchar", "lat": 24.8273, "lon": 92.7979 },
  { "id": 157, "name": "Darjeeling", "lat": 27.0360, "lon": 88.2627 },
  { "id": 158, "name": "Gangtok", "lat": 27.3314, "lon": 88.6138 },
  { "id": 159, "name": "Tezpur", "lat": 26.6338, "lon": 92.8000 },
  { "id": 160, "name": "Muzaffarpur", "lat": 26.1224, "lon": 85.3906 },
  { "id": 161, "name": "Begusarai", "lat": 25.4186, "lon": 86.1336 },
  { "id": 162, "name": "Bokaro", "lat": 23.6693, "lon": 86.1511 },
  { "id": 163, "name": "Rourkela", "lat": 22.2604, "lon": 84.8536 },
  { "id": 164, "name": "Salem", "lat": 11.6643, "lon": 78.1460 },
  { "id": 165, "name": "Erode", "lat": 11.3410, "lon": 77.7172 },
  { "id": 166, "name": "Nellore", "lat": 14.4426, "lon": 79.9865 },
  { "id": 167, "name": "Kurnool", "lat": 15.8281, "lon": 78.0373 },
  { "id": 168, "name": "Nizamabad", "lat": 18.6725, "lon": 78.0941 },
  { "id": 169, "name": "Warangal", "lat": 17.9784, "lon": 79.5941 },
  { "id": 170, "name": "Karimnagar", "lat": 18.4386, "lon": 79.1288 },
  { "id": 171, "name": "Guntur", "lat": 16.3067, "lon": 80.4365 },
  { "id": 172, "name": "Anantapur", "lat": 14.6819, "lon": 77.6006 },
  { "id": 173, "name": "Belgaum", "lat": 15.8497, "lon": 74.4977 },
  { "id": 174, "name": "Davanagere", "lat": 14.4669, "lon": 75.9242 },
  { "id": 175, "name": "Tumkur", "lat": 13.3422, "lon": 77.1010 },
  { "id": 176, "name": "Bellary", "lat": 15.1394, "lon": 76.9214 },
  { "id": 177, "name": "Nanded", "lat": 19.1383, "lon": 77.3210 },
  { "id": 178, "name": "Latur", "lat": 18.4088, "lon": 76.5604 },
  { "id": 179, "name": "Solapur", "lat": 17.6599, "lon": 75.9064 },
  { "id": 180, "name": "Chandrapur", "lat": 19.9615, "lon": 79.2961 },
  { "id": 181, "name": "Parbhani", "lat": 19.2674, "lon": 76.7708 },
  { "id": 182, "name": "Jalgaon", "lat": 21.0077, "lon": 75.5626 },
  { "id": 183, "name": "Akola", "lat": 20.7052, "lon": 77.0088 },
  { "id": 184, "name": "Sangli", "lat": 16.8524, "lon": 74.5815 },
  { "id": 185, "name": "Malegaon", "lat": 20.5570, "lon": 74.5256 },
  { "id": 186, "name": "Satara", "lat": 17.6805, "lon": 74.0183 },
  { "id": 187, "name": "Ratnagiri", "lat": 16.9902, "lon": 73.3120 },
  { "id": 188, "name": "Wardha", "lat": 20.7350, "lon": 78.6022 },
  { "id": 189, "name": "Yavatmal", "lat": 20.3888, "lon": 78.1204 },
  { "id": 190, "name": "Beed", "lat": 18.9891, "lon": 75.7601 },
  { "id": 191, "name": "Osmanabad", "lat": 18.1866, "lon": 76.0419 },
  { "id": 192, "name": "Bhandara", "lat": 21.1702, "lon": 79.6507 },
  { "id": 193, "name": "Baramati", "lat": 18.1511, "lon": 74.5770 },
  { "id": 194, "name": "Gondia", "lat": 21.4600, "lon": 80.0000 },
  { "id": 195, "name": "Hingoli", "lat": 19.7168, "lon": 77.1517 },
  { "id": 196, "name": "Nandurbar", "lat": 21.3736, "lon": 74.2392 },
  { "id": 197, "name": "Washim", "lat": 20.1390, "lon": 77.1025 },
  { "id": 198, "name": "Palghar", "lat": 19.6936, "lon": 72.7656 },
  { "id": 199, "name": "Thanjavur", "lat": 10.7867, "lon": 79.1391 },
  { "id": 200, "name": "Ooty", "lat": 11.4064, "lon": 76.6932 },
  { "id": 201, "name": "Delhi", "lat": 28.6139, "lon": 77.2090 },
  { "id": 202, "name": "Mumbai", "lat": 19.0760, "lon": 72.8777 },
  { "id": 203, "name": "Bangalore", "lat": 12.9716, "lon": 77.5946 },
  { "id": 204, "name": "Hyderabad", "lat": 17.3850, "lon": 78.4867 },
  { "id": 205, "name": "Ahmedabad", "lat": 23.0225, "lon": 72.5714 },
  { "id": 206, "name": "Chennai", "lat": 13.0827, "lon": 80.2707 },
  { "id": 207, "name": "Kolkata", "lat": 22.5726, "lon": 88.3639 },
  { "id": 208, "name": "Pune", "lat": 18.5204, "lon": 73.8567 },
  { "id": 209, "name": "Jaipur", "lat": 26.9124, "lon": 75.7873 },
  { "id": 210, "name": "Lucknow", "lat": 26.8467, "lon": 80.9462 },
  { "id": 211, "name": "Kanpur", "lat": 26.4499, "lon": 80.3319 },
  { "id": 212, "name": "Nagpur", "lat": 21.1458, "lon": 79.0882 },
  { "id": 213, "name": "Indore", "lat": 22.7196, "lon": 75.8577 },
  { "id": 214, "name": "Thane", "lat": 19.2183, "lon": 72.9781 },
  { "id": 215, "name": "Bhopal", "lat": 23.2599, "lon": 77.4126 },
  { "id": 216, "name": "Visakhapatnam", "lat": 17.6868, "lon": 83.2185 },
  { "id": 217, "name": "Patna", "lat": 25.5941, "lon": 85.1376 },
  { "id": 218, "name": "Vadodara", "lat": 22.3072, "lon": 73.1812 },
  { "id": 219, "name": "Ghaziabad", "lat": 28.6692, "lon": 77.4538 },
  { "id": 220, "name": "Ludhiana", "lat": 30.9000, "lon": 75.8500 },
  { "id": 221, "name": "Agra", "lat": 27.1767, "lon": 78.0081 },
  { "id": 222, "name": "Nashik", "lat": 19.9975, "lon": 73.7898 },
  { "id": 223, "name": "Faridabad", "lat": 28.4089, "lon": 77.3178 },
  { "id": 224, "name": "Meerut", "lat": 28.9845, "lon": 77.7064 },
  { "id": 225, "name": "Rajkot", "lat": 22.3039, "lon": 70.8022 },
  { "id": 226, "name": "Kalyan-Dombivli", "lat": 19.2403, "lon": 73.1305 },
  { "id": 227, "name": "Vasai-Virar", "lat": 19.3919, "lon": 72.8397 },
  { "id": 228, "name": "Varanasi", "lat": 25.3176, "lon": 82.9739 },
  { "id": 229, "name": "Srinagar", "lat": 34.0837, "lon": 74.7973 },
  { "id": 230, "name": "Aurangabad", "lat": 19.8762, "lon": 75.3433 },
  { "id": 231, "name": "Dhanbad", "lat": 23.7957, "lon": 86.4304 },
  { "id": 232, "name": "Amritsar", "lat": 31.6340, "lon": 74.8723 },
  { "id": 233, "name": "Navi Mumbai", "lat": 19.0330, "lon": 73.0297 },
  { "id": 234, "name": "Allahabad", "lat": 25.4358, "lon": 81.8463 },
  { "id": 235, "name": "Ranchi", "lat": 23.3441, "lon": 85.3096 },
  { "id": 236, "name": "Howrah", "lat": 22.5958, "lon": 88.2636 },
  { "id": 237, "name": "Coimbatore", "lat": 11.0168, "lon": 76.9558 },
  { "id": 238, "name": "Jabalpur", "lat": 23.1815, "lon": 79.9864 },
  { "id": 239, "name": "Gwalior", "lat": 26.2183, "lon": 78.1828 },
  { "id": 240, "name": "Vijayawada", "lat": 16.5062, "lon": 80.6480 },
  { "id": 241, "name": "Jodhpur", "lat": 26.2389, "lon": 73.0243 },
  { "id": 242, "name": "Madurai", "lat": 9.9252, "lon": 78.1198 },
  { "id": 243, "name": "Raipur", "lat": 21.2514, "lon": 81.6296 },
  { "id": 244, "name": "Kota", "lat": 25.2138, "lon": 75.8648 },
  { "id": 245, "name": "Guwahati", "lat": 26.1445, "lon": 91.7362 },
  { "id": 246, "name": "Chandigarh", "lat": 30.7333, "lon": 76.7794 },
  { "id": 247, "name": "Solapur", "lat": 17.6599, "lon": 75.9064 },
  { "id": 248, "name": "Hubballi", "lat": 15.3647, "lon": 75.1240 },
  { "id": 249, "name": "Mysuru", "lat": 12.2958, "lon": 76.6394 },
  { "id": 250, "name": "Tiruchirappalli", "lat": 10.7905, "lon": 78.7047 },
  { "id": 301, "name": "Bellary", "lat": 15.1394, "lon": 76.9214 },
  { "id": 302, "name": "Guntur", "lat": 16.3067, "lon": 80.4365 },
  { "id": 303, "name": "Bhagalpur", "lat": 25.2500, "lon": 87.0200 },
  { "id": 304, "name": "Muzaffarnagar", "lat": 29.4708, "lon": 77.7033 },
  { "id": 305, "name": "Bharatpur", "lat": 27.2173, "lon": 77.4901 },
  { "id": 306, "name": "Rampur", "lat": 28.8128, "lon": 79.0250 },
  { "id": 307, "name": "Shimoga", "lat": 13.9299, "lon": 75.5681 },
  { "id": 308, "name": "Bijapur", "lat": 16.8302, "lon": 75.7100 },
  { "id": 309, "name": "Ratlam", "lat": 23.3315, "lon": 75.0372 },
  { "id": 310, "name": "Parbhani", "lat": 19.2704, "lon": 76.7601 },
  { "id": 311, "name": "Bilaspur", "lat": 22.0797, "lon": 82.1391 },
  { "id": 312, "name": "Panihati", "lat": 22.6900, "lon": 88.3700 },
  { "id": 313, "name": "Gandhinagar", "lat": 23.2156, "lon": 72.6369 },
  { "id": 314, "name": "Bathinda", "lat": 30.2110, "lon": 74.9455 },
  { "id": 315, "name": "Raichur", "lat": 16.2000, "lon": 77.3700 },
  { "id": 316, "name": "Agartala", "lat": 23.8315, "lon": 91.2868 },
  { "id": 317, "name": "Satna", "lat": 24.6005, "lon": 80.8322 },
  { "id": 318, "name": "Latur", "lat": 18.4000, "lon": 76.5800 },
  { "id": 319, "name": "Dhule", "lat": 20.9013, "lon": 74.7774 },
  { "id": 320, "name": "Rohtak", "lat": 28.8955, "lon": 76.6066 },
  { "id": 321, "name": "Panipat", "lat": 29.3870, "lon": 76.9710 },
  { "id": 322, "name": "Darbhanga", "lat": 26.1537, "lon": 85.8918 },
  { "id": 323, "name": "Kharagpur", "lat": 22.3302, "lon": 87.3237 },
  { "id": 324, "name": "Aizawl", "lat": 23.7271, "lon": 92.7176 },
  { "id": 325, "name": "Ichalkaranji", "lat": 16.7000, "lon": 74.4700 },
  { "id": 326, "name": "Tirupati", "lat": 13.6288, "lon": 79.4192 },
  { "id": 327, "name": "Hospet", "lat": 15.2695, "lon": 76.3871 },
  { "id": 328, "name": "Fatehpur", "lat": 25.9300, "lon": 80.8000 },
  { "id": 329, "name": "Bardhaman", "lat": 23.2330, "lon": 87.8650 },
  { "id": 330, "name": "Sikar", "lat": 27.6119, "lon": 75.1399 },
  { "id": 331, "name": "Ujjain", "lat": 23.1793, "lon": 75.7849 },
  { "id": 332, "name": "Pali", "lat": 25.7725, "lon": 73.3234 },
  { "id": 333, "name": "Sonipat", "lat": 28.9959, "lon": 77.0117 },
  { "id": 334, "name": "Roorkee", "lat": 29.8543, "lon": 77.8880 },
  { "id": 335, "name": "Bhuj", "lat": 23.2500, "lon": 69.6667 },
  { "id": 336, "name": "Rewa", "lat": 24.5300, "lon": 81.3000 },
  { "id": 337, "name": "Hapur", "lat": 28.7304, "lon": 77.7804 },
  { "id": 338, "name": "Anantapur", "lat": 14.6819, "lon": 77.6006 },
  { "id": 339, "name": "Baranagar", "lat": 22.6406, "lon": 88.3657 },
  { "id": 340, "name": "Etawah", "lat": 26.7779, "lon": 79.0214 },
  { "id": 341, "name": "Naihati", "lat": 22.9000, "lon": 88.4200 },
  { "id": 342, "name": "Farrukhabad", "lat": 27.3906, "lon": 79.5806 },
  { "id": 343, "name": "Junagadh", "lat": 21.5222, "lon": 70.4579 },
  { "id": 344, "name": "Bally", "lat": 22.6500, "lon": 88.3400 },
  { "id": 345, "name": "Ambala", "lat": 30.3752, "lon": 76.7821 },
  { "id": 346, "name": "Morena", "lat": 26.5000, "lon": 78.0000 },
  { "id": 347, "name": "Amroha", "lat": 28.9000, "lon": 78.4700 },
  { "id": 348, "name": "Gaya", "lat": 24.7914, "lon": 85.0002 },
  { "id": 349, "name": "Barasat", "lat": 22.7000, "lon": 88.4800 },
  { "id": 350, "name": "Dewas", "lat": 22.9676, "lon": 76.0560 },
  { "id": 301, "name": "Bellary", "lat": 15.1394, "lon": 76.9214 },
  { "id": 302, "name": "Guntur", "lat": 16.3067, "lon": 80.4365 },
  { "id": 303, "name": "Bhagalpur", "lat": 25.2500, "lon": 87.0200 },
  { "id": 304, "name": "Muzaffarnagar", "lat": 29.4708, "lon": 77.7033 },
  { "id": 305, "name": "Bharatpur", "lat": 27.2173, "lon": 77.4901 },
  { "id": 306, "name": "Rampur", "lat": 28.8128, "lon": 79.0250 },
  { "id": 307, "name": "Shimoga", "lat": 13.9299, "lon": 75.5681 },
  { "id": 308, "name": "Bijapur", "lat": 16.8302, "lon": 75.7100 },
  { "id": 309, "name": "Ratlam", "lat": 23.3315, "lon": 75.0372 },
  { "id": 310, "name": "Parbhani", "lat": 19.2704, "lon": 76.7601 },
  { "id": 311, "name": "Bilaspur", "lat": 22.0797, "lon": 82.1391 },
  { "id": 312, "name": "Panihati", "lat": 22.6900, "lon": 88.3700 },
  { "id": 313, "name": "Gandhinagar", "lat": 23.2156, "lon": 72.6369 },
  { "id": 314, "name": "Bathinda", "lat": 30.2110, "lon": 74.9455 },
  { "id": 315, "name": "Raichur", "lat": 16.2000, "lon": 77.3700 },
  { "id": 316, "name": "Agartala", "lat": 23.8315, "lon": 91.2868 },
  { "id": 317, "name": "Satna", "lat": 24.6005, "lon": 80.8322 },
  { "id": 318, "name": "Latur", "lat": 18.4000, "lon": 76.5800 },
  { "id": 319, "name": "Dhule", "lat": 20.9013, "lon": 74.7774 },
  { "id": 320, "name": "Rohtak", "lat": 28.8955, "lon": 76.6066 },
  { "id": 321, "name": "Panipat", "lat": 29.3870, "lon": 76.9710 },
  { "id": 322, "name": "Darbhanga", "lat": 26.1537, "lon": 85.8918 },
  { "id": 323, "name": "Kharagpur", "lat": 22.3302, "lon": 87.3237 },
  { "id": 324, "name": "Aizawl", "lat": 23.7271, "lon": 92.7176 },
  { "id": 325, "name": "Ichalkaranji", "lat": 16.7000, "lon": 74.4700 },
  { "id": 326, "name": "Tirupati", "lat": 13.6288, "lon": 79.4192 },
  { "id": 327, "name": "Hospet", "lat": 15.2695, "lon": 76.3871 },
  { "id": 328, "name": "Fatehpur", "lat": 25.9300, "lon": 80.8000 },
  { "id": 329, "name": "Bardhaman", "lat": 23.2330, "lon": 87.8650 },
  { "id": 330, "name": "Sikar", "lat": 27.6119, "lon": 75.1399 },
  { "id": 331, "name": "Ujjain", "lat": 23.1793, "lon": 75.7849 },
  { "id": 332, "name": "Pali", "lat": 25.7725, "lon": 73.3234 },
  { "id": 333, "name": "Sonipat", "lat": 28.9959, "lon": 77.0117 },
  { "id": 334, "name": "Roorkee", "lat": 29.8543, "lon": 77.8880 },
  { "id": 335, "name": "Bhuj", "lat": 23.2500, "lon": 69.6667 },
  { "id": 336, "name": "Rewa", "lat": 24.5300, "lon": 81.3000 },
  { "id": 337, "name": "Hapur", "lat": 28.7304, "lon": 77.7804 },
  { "id": 338, "name": "Anantapur", "lat": 14.6819, "lon": 77.6006 },
  { "id": 339, "name": "Baranagar", "lat": 22.6406, "lon": 88.3657 },
  { "id": 340, "name": "Etawah", "lat": 26.7779, "lon": 79.0214 },
  { "id": 341, "name": "Naihati", "lat": 22.9000, "lon": 88.4200 },
  { "id": 342, "name": "Farrukhabad", "lat": 27.3906, "lon": 79.5806 },
  { "id": 343, "name": "Junagadh", "lat": 21.5222, "lon": 70.4579 },
  { "id": 344, "name": "Bally", "lat": 22.6500, "lon": 88.3400 },
  { "id": 345, "name": "Ambala", "lat": 30.3752, "lon": 76.7821 },
  { "id": 346, "name": "Morena", "lat": 26.5000, "lon": 78.0000 },
  { "id": 347, "name": "Amroha", "lat": 28.9000, "lon": 78.4700 },
  { "id": 348, "name": "Gaya", "lat": 24.7914, "lon": 85.0002 },
  { "id": 349, "name": "Barasat", "lat": 22.7000, "lon": 88.4800 },
  { "id": 350, "name": "Dewas", "lat": 22.9676, "lon": 76.0560 },
{ "id": 351, "name": "Katni", "lat": 23.8333, "lon": 80.3833 },
{ "id": 352, "name": "Sambhal", "lat": 28.5820, "lon": 78.5661 },
{ "id": 353, "name": "Bulandshahr", "lat": 28.4069, "lon": 77.8498 },
{ "id": 354, "name": "Alappuzha", "lat": 9.4981, "lon": 76.3388 },
{ "id": 355, "name": "Rae Bareli", "lat": 26.2300, "lon": 81.2405 },
{ "id": 356, "name": "Khandwa", "lat": 21.8257, "lon": 76.3524 },
{ "id": 357, "name": "Bhiwani", "lat": 28.7911, "lon": 76.1320 },
{ "id": 358, "name": "Bettiah", "lat": 26.8022, "lon": 84.5038 },
{ "id": 359, "name": "Sopore", "lat": 34.2990, "lon": 74.4687 },
{ "id": 360, "name": "Ambikapur", "lat": 23.1189, "lon": 83.1956 },
{ "id": 361, "name": "Chandrapur", "lat": 19.9615, "lon": 79.2961 },
{ "id": 362, "name": "Purnia", "lat": 25.7780, "lon": 87.4753 },
{ "id": 363, "name": "Sangli", "lat": 16.8544, "lon": 74.5642 },
{ "id": 364, "name": "Shillong", "lat": 25.5788, "lon": 91.8933 },
{ "id": 365, "name": "Nalgonda", "lat": 17.0576, "lon": 79.2684 },
{ "id": 366, "name": "Chittoor", "lat": 13.2172, "lon": 79.1003 },
{ "id": 367, "name": "Hindupur", "lat": 13.8289, "lon": 77.4910 },
{ "id": 368, "name": "Haldwani", "lat": 29.2193, "lon": 79.5117 },
{ "id": 369, "name": "Churu", "lat": 28.2967, "lon": 74.9672 },
{ "id": 370, "name": "Jorhat", "lat": 26.7509, "lon": 94.2031 },
{ "id": 371, "name": "Nandyal", "lat": 15.4786, "lon": 78.4836 },
{ "id": 372, "name": "Bongaigaon", "lat": 26.4782, "lon": 90.5583 },
{ "id": 373, "name": "Tenali", "lat": 16.2422, "lon": 80.6405 },
{ "id": 374, "name": "Palakkad", "lat": 10.7867, "lon": 76.6548 },
{ "id": 375, "name": "Kollam", "lat": 8.8932, "lon": 76.6141 },
{ "id": 376, "name": "Nizamabad", "lat": 18.6725, "lon": 78.0941 },
{ "id": 377, "name": "Raiganj", "lat": 25.6167, "lon": 88.1167 },
{ "id": 378, "name": "Buxar", "lat": 25.5667, "lon": 83.9833 },
{ "id": 379, "name": "Azamgarh", "lat": 26.0674, "lon": 83.1836 },
{ "id": 380, "name": "Suryapet", "lat": 17.1500, "lon": 79.6167 },
{ "id": 381, "name": "Mahbubnagar", "lat": 16.7437, "lon": 77.9866 },
{ "id": 382, "name": "Nadiad", "lat": 22.6916, "lon": 72.8616 },
{ "id": 383, "name": "Proddatur", "lat": 14.7502, "lon": 78.5481 },
{ "id": 384, "name": "Itanagar", "lat": 27.1020, "lon": 93.6920 },
{ "id": 385, "name": "Karnal", "lat": 29.6857, "lon": 76.9905 },
{ "id": 386, "name": "Kavali", "lat": 14.9153, "lon": 79.9915 },
{ "id": 387, "name": "Nanded", "lat": 19.1383, "lon": 77.3210 },
{ "id": 388, "name": "Chhindwara", "lat": 22.0560, "lon": 78.9390 },
{ "id": 389, "name": "Jhansi", "lat": 25.4484, "lon": 78.5685 },
{ "id": 390, "name": "Bhind", "lat": 26.5667, "lon": 78.7833 },
{ "id": 391, "name": "Tinsukia", "lat": 27.4922, "lon": 95.3534 },
{ "id": 392, "name": "Dibrugarh", "lat": 27.4728, "lon": 94.9120 },
{ "id": 393, "name": "Korba", "lat": 22.3485, "lon": 82.7501 },
{ "id": 394, "name": "Dhanbad", "lat": 23.7957, "lon": 86.4304 },
{ "id": 395, "name": "Gulbarga", "lat": 17.3297, "lon": 76.8343 },
{ "id": 396, "name": "Silchar", "lat": 24.8270, "lon": 92.7979 },
{ "id": 397, "name": "Bahraich", "lat": 27.5743, "lon": 81.5940 },
{ "id": 398, "name": "Ballia", "lat": 25.7586, "lon": 84.1480 },
{ "id": 399, "name": "Kharar", "lat": 30.7460, "lon": 76.6466 },
{ "id": 400, "name": "Madhubani", "lat": 26.3700, "lon": 86.0800 }

]

